[
  { "name": "London", "city": "London", "latitude": 51.5074, "longitude": 0.1278 },
  { "name": "Paris", "city": "Paris", "latitude": 48.8566, "longitude": 2.3522 },
  { "name": "Berlin", "city": "Berlin", "latitude": 52.5200, "longitude": 13.4050 },
  { "name": "Rome", "city": "Rome", "latitude": 41.9028, "longitude": 12.4964 },
  { "name": "Madrid", "city": "Madrid", "latitude": 40.4168, "longitude": -3.7038 },
  { "name": "Amsterdam", "city": "Amsterdam", "latitude": 52.3676, "longitude": 4.9041 },
  { "name": "Brussels", "city": "Brussels", "latitude": 50.8503, "longitude": 4.3517 },
  { "name": "Vienna", "city": "Vienna", "latitude": 48.2082, "longitude": 16.3738 },
  { "name": "Prague", "city": "Prague", "latitude": 50.0755, "longitude": 14.4378 },
  { "name": "Warsaw", "city": "Warsaw", "latitude": 52.2297, "longitude": 21.0122 },
  { "name": "Budapest", "city": "Budapest", "latitude": 47.4979, "longitude": 19.0402 },
  { "name": "Dublin", "city": "Dublin", "latitude": 53.3498, "longitude": -6.2603 },
  { "name": "Lisbon", "city": "Lisbon", "latitude": 38.7223, "longitude": -9.1393 },
  { "name": "Copenhagen", "city": "Copenhagen", "latitude": 55.6761, "longitude": 12.5683 },
  { "name": "Stockholm", "city": "Stockholm", "latitude": 59.3293, "longitude": 18.0686 },
  { "name": "Oslo", "city": "Oslo", "latitude": 59.9139, "longitude": 10.7522 },
  { "name": "Helsinki", "city": "Helsinki", "latitude": 60.1695, "longitude": 24.9354 },
  { "name": "Athens", "city": "Athens", "latitude": 37.9838, "longitude": 23.7275 },
  { "name": "Zurich", "city": "Zurich", "latitude": 47.3769, "longitude": 8.5417 },
  { "name": "Geneva", "city": "Geneva", "latitude": 46.2044, "longitude": 6.1432 }
]
